[
    {"city": "Abu Dhabi", "country": "UAE", "lat": 24.47, "lon": 54.37, "station_id": "001-99999", "timezone": "Asia/Dubai"},
    {"city": "Agra", "country": "India", "lat": 27.18, "lon": 78.02, "station_id": "002-99999", "timezone": "Asia/Kolkata"},
    {"city": "Amsterdam", "country": "Netherlands", "lat": 52.37, "lon": 4.90, "station_id": "003-99999", "timezone": "Europe/Amsterdam"},
    {"city": "Athens", "country": "Greece", "lat": 37.98, "lon": 23.73, "station_id": "004-99999", "timezone": "Europe/Athens"},
    {"city": "Auckland", "country": "New Zealand", "lat": -36.85, "lon": 174.76, "station_id": "005-99999", "timezone": "Pacific/Auckland"},
    {"city": "Bali", "country": "Indonesia", "lat": -8.41, "lon": 115.19, "station_id": "006-99999", "timezone": "Asia/Makassar"},
    {"city": "Bangkok", "country": "Thailand", "lat": 13.76, "lon": 100.50, "station_id": "007-99999", "timezone": "Asia/Bangkok"},
    {"city": "Barcelona", "country": "Spain", "lat": 41.39, "lon": 2.17, "station_id": "008-99999", "timezone": "Europe/Madrid"},
    {"city": "Beijing", "country": "China", "lat": 39.90, "lon": 116.41, "station_id": "009-99999", "timezone": "Asia/Shanghai"},
    {"city": "Berlin", "country": "Germany", "lat": 52.52, "lon": 13.41, "station_id": "010-99999", "timezone": "Europe/Berlin"},
    {"city": "Bogotá", "country": "Colombia", "lat": 4.71, "lon": -74.07, "station_id": "011-99999", "timezone": "America/Bogota"},
    {"city": "Bora Bora", "country": "French Polynesia", "lat": -16.49, "lon": -151.74, "station_id": "012-99999", "timezone": "Pacific/Tahiti"},
    {"city": "Boston", "country": "USA", "lat": 42.36, "lon": -71.06, "station_id": "013-99999", "timezone": "America/New_York"},
    {"city": "Brussels", "country": "Belgium", "lat": 50.85, "lon": 4.35, "station_id": "014-99999", "timezone": "Europe/Brussels"},
    {"city": "Buenos Aires", "country": "Argentina", "lat": -34.60, "lon": -58.38, "station_id": "015-99999", "timezone": "America/Argentina/Buenos_Aires"},
    {"city": "Cairo", "country": "Egypt", "lat": 30.04, "lon": 31.24, "station_id": "016-99999", "timezone": "Africa/Cairo"},
    {"city": "Cape Town", "country": "South Africa", "lat": -33.92, "lon": 18.42, "station_id": "017-99999", "timezone": "Africa/Johannesburg"},
    {"city": "Chicago", "country": "USA", "lat": 41.88, "lon": -87.63, "station_id": "018-99999", "timezone": "America/Chicago"},
    {"city": "Colombo", "country": "Sri Lanka", "lat": 6.93, "lon": 79.85, "station_id": "019-99999", "timezone": "Asia/Colombo"},
    {"city": "Copenhagen", "country": "Denmark", "lat": 55.62, "lon": 12.65, "station_id": "020-99999", "timezone": "Europe/Copenhagen"},
    {"city": "Delhi", "country": "India", "lat": 28.61, "lon": 77.21, "station_id": "021-99999", "timezone": "Asia/Kolkata"},
    {"city": "Dhaka", "country": "Bangladesh", "lat": 23.81, "lon": 90.41, "station_id": "022-99999", "timezone": "Asia/Dhaka"},
    {"city": "Dubai", "country": "UAE", "lat": 25.25, "lon": 55.36, "station_id": "023-99999", "timezone": "Asia/Dubai"},
    {"city": "Dubrovnik", "country": "Croatia", "lat": 42.65, "lon": 18.09, "station_id": "024-99999", "timezone": "Europe/Zagreb"},
    {"city": "Edinburgh", "country": "UK", "lat": 55.95, "lon": -3.19, "station_id": "025-99999", "timezone": "Europe/London"},
    {"city": "Florence", "country": "Italy", "lat": 43.77, "lon": 11.26, "station_id": "026-99999", "timezone": "Europe/Rome"},
    {"city": "Hanoi", "country": "Vietnam", "lat": 21.03, "lon": 105.85, "station_id": "027-99999", "timezone": "Asia/Ho_Chi_Minh"},
    {"city": "Hawaii", "country": "USA", "lat": 21.31, "lon": -157.86, "station_id": "028-99999", "timezone": "Pacific/Honolulu"}, 
    {"city": "Hong Kong", "country": "China", "lat": 22.32, "lon": 114.17, "station_id": "029-99999", "timezone": "Asia/Hong_Kong"},
    {"city": "Islamabad", "country": "Pakistan", "lat": 33.68, "lon": 73.05, "station_id": "030-99999", "timezone": "Asia/Karachi"},
    {"city": "Istanbul", "country": "Turkey", "lat": 41.01, "lon": 28.98, "station_id": "031-99999", "timezone": "Europe/Istanbul"},
    {"city": "Jakarta", "country": "Indonesia", "lat": -6.21, "lon": 106.85, "station_id": "032-99999", "timezone": "Asia/Jakarta"},
    {"city": "Johannesburg", "country": "South Africa", "lat": -26.20, "lon": 28.04, "station_id": "033-99999", "timezone": "Africa/Johannesburg"},
    {"city": "Kyoto", "country": "Japan", "lat": 35.01, "lon": 135.77, "station_id": "034-99999", "timezone": "Asia/Tokyo"},
    {"city": "Karachi", "country": "Pakistan", "lat": 24.86, "lon": 67.01, "station_id": "035-99999", "timezone": "Asia/Karachi"},
    {"city": "Kuala Lumpur", "country": "Malaysia", "lat": 3.14, "lon": 101.69, "station_id": "036-99999", "timezone": "Asia/Kuala_Lumpur"},
    {"city": "Lahore", "country": "Pakistan", "lat": 31.55, "lon": 74.34, "station_id": "037-99999", "timezone": "Asia/Karachi"},
    {"city": "Las Vegas", "country": "USA", "lat": 36.17, "lon": -115.14, "station_id": "038-99999", "timezone": "America/Los_Angeles"},
    {"city": "Lima", "country": "Peru", "lat": -12.05, "lon": -77.04, "station_id": "039-99999", "timezone": "America/Lima"},
    {"city": "Lisbon", "country": "Portugal", "lat": 38.72, "lon": -9.14, "station_id": "040-99999", "timezone": "Europe/Lisbon"},
    {"city": "London", "country": "UK", "lat": 51.51, "lon": -0.13, "station_id": "041-99999", "timezone": "Europe/London"},
    {"city": "Los Angeles", "country": "USA", "lat": 34.05, "lon": -118.24, "station_id": "042-99999", "timezone": "America/Los_Angeles"},
    {"city": "Madrid", "country": "Spain", "lat": 40.42, "lon": -3.70, "station_id": "043-99999", "timezone": "Europe/Madrid"},
    {"city": "Malé", "country": "Maldives", "lat": 4.18, "lon": 73.51, "station_id": "044-99999", "timezone": "Indian/Maldives"},
    {"city": "Manama", "country": "Bahrain", "lat": 26.22, "lon": 50.58, "station_id": "045-99999", "timezone": "Asia/Bahrain"},
    {"city": "Manila", "country": "Philippines", "lat": 14.60, "lon": 120.98, "station_id": "046-99999", "timezone": "Asia/Manila"},
    {"city": "Maui", "country": "USA", "lat": 20.80, "lon": -156.33, "station_id": "047-99999", "timezone": "Pacific/Honolulu"},
    {"city": "Melbourne", "country": "Australia", "lat": -37.81, "lon": 144.96, "station_id": "048-99999", "timezone": "Australia/Melbourne"},
    {"city": "Mexico City", "country": "Mexico", "lat": 19.43, "lon": -99.13, "station_id": "049-99999", "timezone": "America/Mexico_City"},
    {"city": "Montreal", "country": "Canada", "lat": 45.50, "lon": -73.57, "station_id": "050-99999", "timezone": "America/Montreal"},
    {"city": "Moscow", "country": "Russia", "lat": 55.76, "lon": 37.62, "station_id": "051-99999", "timezone": "Europe/Moscow"},
    {"city": "Mumbai", "country": "India", "lat": 19.08, "lon": 72.88, "station_id": "052-99999", "timezone": "Asia/Kolkata"},
    {"city": "New York", "country": "USA", "lat": 40.71, "lon": -74.01, "station_id": "053-99999", "timezone": "America/New_York"},
    {"city": "Osaka", "country": "Japan", "lat": 34.69, "lon": 135.50, "station_id": "054-99999", "timezone": "Asia/Tokyo"},
    {"city": "Paris", "country": "France", "lat": 48.86, "lon": 2.35, "station_id": "055-99999", "timezone": "Europe/Paris"},
    {"city": "Phuket", "country": "Thailand", "lat": 7.88, "lon": 98.39, "station_id": "056-99999", "timezone": "Asia/Bangkok"},
    {"city": "Prague", "country": "Czech Republic", "lat": 50.08, "lon": 14.44, "station_id": "057-99999", "timezone": "Europe/Prague"},
    {"city": "Reykjavik", "country": "Iceland", "lat": 64.15, "lon": -21.85, "station_id": "058-99999", "timezone": "Atlantic/Reykjavik"},
    {"city": "Rio de Janeiro", "country": "Brazil", "lat": -22.91, "lon": -43.17, "station_id": "059-99999", "timezone": "America/Sao_Paulo"},
    {"city": "Rome", "country": "Italy", "lat": 41.90, "lon": 12.50, "station_id": "060-99999", "timezone": "Europe/Rome"},
    {"city": "Santorini", "country": "Greece", "lat": 36.39, "lon": 25.46, "station_id": "061-99999", "timezone": "Europe/Athens"},
    {"city": "Seoul", "country": "South Korea", "lat": 37.57, "lon": 126.98, "station_id": "062-99999", "timezone": "Asia/Seoul"},
    {"city": "Singapore", "country": "Singapore", "lat": 1.35, "lon": 103.82, "station_id": "063-99999", "timezone": "Asia/Singapore"},
    {"city": "Stockholm", "country": "Sweden", "lat": 59.33, "lon": 18.07, "station_id": "064-99999", "timezone": "Europe/Stockholm"},
    {"city": "Swat", "country": "Pakistan", "lat": 34.77, "lon": 72.36, "station_id": "065-99999", "timezone": "Asia/Karachi"},
    {"city": "Sydney", "country": "Australia", "lat": -33.87, "lon": 151.21, "station_id": "066-99999", "timezone": "Australia/Sydney"},
    {"city": "Taipei", "country": "Taiwan", "lat": 25.04, "lon": 121.58, "station_id": "067-99999", "timezone": "Asia/Taipei"},
    {"city": "Tokyo", "country": "Japan", "lat": 35.68, "lon": 139.77, "station_id": "068-99999", "timezone": "Asia/Tokyo"},
    {"city": "Toronto", "country": "Canada", "lat": 43.65, "lon": -79.38, "station_id": "069-99999", "timezone": "America/Toronto"},
    {"city": "Vancouver", "country": "Canada", "lat": 49.28, "lon": -123.12, "station_id": "070-99999", "timezone": "America/Vancouver"},
    {"city": "Venice", "country": "Italy", "lat": 45.44, "lon": 12.33, "station_id": "071-99999", "timezone": "Europe/Rome"},
    {"city": "Vienna", "country": "Austria", "lat": 48.21, "lon": 16.37, "station_id": "072-99999", "timezone": "Europe/Vienna"},
    {"city": "Warsaw", "country": "Poland", "lat": 52.23, "lon": 21.01, "station_id": "073-99999", "timezone": "Europe/Warsaw"},
    {"city": "Zurich", "country": "Switzerland", "lat": 47.38, "lon": 8.54, "station_id": "074-99999", "timezone": "Europe/Zurich"}
]